[
  {
    "name": "El món neix en cada besada (Joan Fontcuberta)",
    "lat": 41.3849,
    "lng": 2.1759,
    "slug": "besada",
    "html": "<b>El món neix en cada besada</b><br>Fotomosaico hecho con miles de imágenes de besos. Símbolo del amor y la participación ciudadana en el Gòtic."
  },
  {
    "name": "B-Murals · Nau Bostik",
    "lat": 41.4263,
    "lng": 2.1893,
    "slug": "nau-bostik",
    "html": "<b>B-Murals · Nau Bostik</b><br>Centro dedicado al arte urbano contemporáneo. Alberga exposiciones, talleres y murales permanentes."
  },
  {
    "name": "Poblenou Open Walls Festival",
    "lat": 41.4079,
    "lng": 2.2009,
    "slug": "poblenou-open-walls",
    "html": "<b>Poblenou Open Walls</b><br>Festival internacional que convierte el 22@ en un museo al aire libre con murales gigantes."
  },
  {
    "name": "La Escocesa (fábrica de creación)",
    "lat": 41.4083,
    "lng": 2.1997,
    "slug": "la-escocesa",
    "html": "<b>La Escocesa</b><br>Fábrica de creación artística con residencias y espacios abiertos al arte urbano experimental."
  },
  {
    "name": "Parc Fluvial del Besòs",
    "lat": 41.4308,
    "lng": 2.2199,
    "slug": "besos",
    "html": "<b>Parc Fluvial del Besòs</b><br>Tramos de muros y pasarelas con arte urbano a lo largo del río Besòs, accesible en bici."
  },
  {
    "name": "Tres Xemeneies de Sant Adrià",
    "lat": 41.4301,
    "lng": 2.2386,
    "slug": "tres-xemeneies",
    "html": "<b>Tres Xemeneies de Sant Adrià</b><br>Antigua central térmica convertida en icono industrial y escenario para intervenciones artísticas."
  },
  {
    "name": "Fabra i Coats · Fàbrica de Creació",
    "lat": 41.4331,
    "lng": 2.1895,
    "slug": "fabra-i-coats",
    "html": "<b>Fabra i Coats</b><br>Centro cultural y artístico en una antigua fábrica textil. Acoge exposiciones de arte urbano y audiovisual."
  },
  {
    "name": "Parc del Clot · Murales urbanos",
    "lat": 41.4108,
    "lng": 2.1914,
    "slug": "clot",
    "html": "<b>Parc del Clot</b><br>Antiguo entorno ferroviario reconvertido en parque con murales comunitarios y esculturas contemporáneas."
  },
  {
    "name": "Skate Agora (Badalona)",
    "lat": 41.4411,
    "lng": 2.2352,
    "slug": "skate-agora",
    "html": "<b>Skate Agora</b><br>Parque de skate con intervenciones gráficas y murales colaborativos junto al mar."
  },
  {
    "name": "Centre d’Art Contemporani Fabra i Coats",
    "lat": 41.4325,
    "lng": 2.1898,
    "slug": "centre-fabra",
    "html": "<b>Centre d’Art Contemporani</b><br>Espacio público para exposiciones y proyectos de arte experimental y urbano."
  },
  {
    "name": "Jardins del Doctor Pla i Armengol",
    "lat": 41.4147,
    "lng": 2.1591,
    "slug": "pla-armengol",
    "html": "<b>Jardins del Doctor Pla i Armengol</b><br>Esculturas contemporáneas integradas con vegetación patrimonial y espacios verdes."
  },
  {
    "name": "MACBA (Museu d’Art Contemporani de Barcelona)",
    "lat": 41.3839,
    "lng": 2.1668,
    "slug": "macba",
    "html": "<b>MACBA</b><br>Museo central de arte contemporáneo en Barcelona. Punto de encuentro de skaters y artistas urbanos."
  }
]